[
    {
        "name": "Nueva York",
        "latitude": 40.7128,
        "longitude": -74.0060
    },
    {
        "name": "Tokio",
        "latitude": 35.6895,
        "longitude": 139.6917
    },
    {
        "name": "Londres",
        "latitude": 51.5074,
        "longitude": -0.1278
    },
    {
        "name": "París",
        "latitude": 48.8566,
        "longitude": 2.3522
    },
    {
        "name": "Roma",
        "latitude": 41.9028,
        "longitude": 12.4964
    },
    {
        "name": "Sídney",
        "latitude": -33.8651,
        "longitude": 151.2099
    },
    {
        "name": "Río de Janeiro",
        "latitude": -22.9068,
        "longitude": -43.1729
    },
    {
        "name": "Ciudad del Cabo",
        "latitude": -33.9249,
        "longitude": 18.4241
    },
    {
        "name": "Moscú",
        "latitude": 55.7558,
        "longitude": 37.6176
    },
    {
        "name": "Pekín",
        "latitude": 39.9042,
        "longitude": 116.4074
    }
]
  